[
    {
        "name": "Turtle Rock",
        "category": "rivers",
        "city": "Twentynine Palms",
        "state": "California",
        "isFeatured": true,
        "isFavorite": true,
        "park": "Joshua Tree National Park",
        "coordinates": {
            "longitude": -116.166868,
            "latitude": 34.011286
        },
        "imageName": "turtlerock"
    },
    {
        "name": "Silver Salmon Creek",
        "category": "lakes",
        "city": "Port Alsworth",
        "state": "Alaska",
        "isFeatured": false,
        "isFavorite": false,
        "park": "Lake Clark National Park and Preserve",
        "coordinates": {
            "longitude": -152.665167,
            "latitude": 59.980167
        },
        "imageName": "silversalmoncreek"
    },
    {
        "name": "Chilkoot Trail",
        "category": "mountains",
        "city": "Skagway",
        "state": "Alaska",
        "isFeatured": false,
        "isFavorite": true,
        "park": "Klondike Gold Rush National Historical Park",
        "coordinates": {
            "longitude": -135.334571,
            "latitude": 59.560551
        },
        "imageName": "chilkoottrail"
    },
    {
        "name": "St. Mary Lake",
        "category": "lakes",
        "city": "Browning",
        "state": "Montana",
        "isFeatured": true,
        "isFavorite": true,
        "park": "Glacier National Park",
        "coordinates": {
            "longitude": -113.536248,
            "latitude": 48.69423
        },
        "imageName": "stmarylake"
    },
    {
        "name": "Twin Lake",
        "category": "lakes",
        "city": "Twin Lakes",
        "state": "Alaska",
        "isFeatured": false,
        "isFavorite": false,
        "park": "Lake Clark National Park and Preserve",
        "coordinates": {
            "longitude": -153.849883,
            "latitude": 60.641684
        },
        "imageName": "twinlake"
    },
    {
        "name": "Lake McDonald",
        "category": "mountains",
        "city": "West Glacier",
        "state": "Montana",
        "isFeatured": false,
        "isFavorite": false,
        "park": "Glacier National Park",
        "coordinates": {
            "longitude": -113.934831,
            "latitude": 48.56002
        },
        "imageName": "lakemcdonald"
    },
    {
        "name": "Charley Rivers",
        "category": "rivers",
        "city": "Eaking",
        "state": "Alaska",
        "isFeatured": true,
        "isFavorite": false,
        "park": "Charley Rivers National Preserve",
        "coordinates": {
            "longitude": -143.122586,
            "latitude": 65.350021
        },
        "imageName": "charleyrivers",
    },
    {
        "name": "Icy Bay",
        "category": "mountains",
        "city": "Icy Bay",
        "state": "Alaska",
        "isFeatured": false,
        "isFavorite": false,
        "park": "Wrangell-St. Elias National Park and Preserve",
        "coordinates": {
            "longitude": -141.518167,
            "latitude": 60.089917
        },
        "imageName": "icybay"
    },
    {
        "name": "Rainbow Lake",
        "category": "lakes",
        "city": "Willow",
        "state": "Alaska",
        "isFeatured": false,
        "isFavorite": false,
        "park": "State Recreation Area",
        "coordinates": {
            "longitude": -150.086103,
            "latitude": 61.694334
        },
        "imageName": "rainbowlake"
    },
    {
        "name": "Hidden Lake",
        "category": "lakes",
        "city": "Newhalem",
        "state": "Washington",
        "isFeatured": false,
        "isFavorite": false,
        "park": "North Cascades National Park",
        "coordinates": {
            "longitude": -121.17799,
            "latitude": 48.495442
        },
        "imageName": "hiddenlake"
    },
    {
        "name": "Chincoteague",
        "category": "rivers",
        "city": "Chincoteague",
        "state": "Virginia",
        "isFeatured": false,
        "isFavorite": false,
        "park": "Chincoteague National Wildlife Refuge",
        "coordinates": {
            "longitude": -75.383212,
            "latitude": 37.91531
        },
        "imageName": "chincoteague"
    },
    {
        "name": "Lake Umbagog",
        "category": "lakes",
        "city": "Errol",
        "state": "New Hampshire",
        "isFeatured": true,
        "isFavorite": false,
        "park": "Umbagog National Wildlife Refuge",
        "coordinates": {
            "longitude": -71.056816,
            "latitude": 44.747408
        },
        "imageName": "umbagog"
    }
]
